City_ID,City,Cloudiness,Country,Date,Humidity,Lat,Lng,Max Temp,Wind Speed
0,Ayan,76,TR,1552191128,75,40.67,33.6,28.91,3.38
1,Yurty,56,RU,1552191128,63,56.05,97.64,18.7,7.63
2,Jamestown,0,AU,1552190829,40,-33.21,138.6,84.49,15.79
3,Tiksi,0,RU,1552191128,77,71.64,128.87,-12.63,3.27
4,Karachi,75,PK,1552190100,49,24.87,67.03,69.8,7.4
5,Torbay,40,CA,1552190608,73,47.66,-52.73,21.99,13.87
6,High Level,20,CA,1552186800,72,58.52,-117.13,15.8,3.36
7,Capao da Canoa,68,BR,1552191007,100,-29.75,-50.01,76.03,23.51
8,Sioux Lookout,90,CA,1552189200,100,50.1,-91.92,30.2,3.36
9,Albany,1,US,1552191080,42,42.65,-73.75,30.2,4.7
10,Tukums,90,LV,1552188000,91,56.97,23.17,39.2,12.75
11,New Norfolk,75,AU,1552191076,40,-42.78,147.06,73.99,17.22
12,Sao Francisco,0,BR,1552190400,94,-25.65,-53.85,71.6,5.82
13,Hobart,75,AU,1552190896,40,-42.88,147.33,73.99,16.11
14,Vaini,0,IN,1552190400,26,15.34,74.49,84.2,6.93
15,Rikitea,88,PF,1552191131,100,-23.12,-134.97,74.5,11.54
16,Ushuaia,40,AR,1552190400,76,-54.81,-68.31,57.2,17.22
17,Cururupu,48,BR,1552191131,94,-1.82,-44.87,76.97,3.71
18,Lakatoro,92,VU,1552191131,100,-16.11,167.42,75.4,5.17
19,Burnie,92,AU,1552190914,82,-41.05,145.91,66.99,7
20,Luba,0,PH,1552191132,59,17.32,120.7,83.05,3.6
21,Kapaa,75,US,1552190908,83,22.08,-159.32,75.2,17.22
22,Hithadhoo,0,MV,1552191134,100,-0.6,73.08,83.41,6.4
23,Dikson,76,RU,1552191134,90,73.51,80.55,12.44,17.81
24,Cape Town,8,ZA,1552191064,85,-33.93,18.42,66.99,5.99
25,Katsuura,90,JP,1552190082,82,33.93,134.5,55.4,10.29
26,Bredasdorp,92,ZA,1552190449,77,-34.53,20.04,69.8,14.99
27,Mar del Plata,0,AR,1552191135,97,-46.43,-67.52,49.57,4.61
28,Leshukonskoye,80,RU,1552191135,83,64.9,45.76,29.23,6.4
29,Castro,0,CL,1552190400,71,-42.48,-73.76,53.6,4.7
30,Ina,75,JP,1552191128,56,35.83,137.95,57.2,12.75
31,Avarua,68,CK,1552190400,78,-21.21,-159.78,82.4,8.05
32,Lebu,20,ET,1552186800,87,8.96,38.73,55.4,4.7
33,Arkhara,0,RU,1552191136,38,49.42,130.09,38.72,4.05
34,Touros,20,BR,1552186800,94,-5.2,-35.46,75.2,2.24
35,Severo-Kurilsk,80,RU,1552191136,100,50.68,156.12,27.16,11.88
36,Bambous Virieux,20,MU,1552190948,94,-20.34,57.76,82,4.7
37,Norman Wells,75,CA,1552186800,61,65.28,-126.83,17.6,2.24
38,Dawlatabad,88,AF,1552191137,66,36.41,64.91,41.47,7.4
39,Dekar,56,BW,1552191137,45,-21.53,21.93,72.74,3.83
40,Barrow,0,AR,1552191137,69,-38.31,-60.23,48.4,8.08
41,Lagoa,0,PT,1552191130,82,37.14,-8.45,55.99,6.93
42,Narsaq,8,GL,1552186200,63,60.91,-46.05,26.6,4.7
43,Innisfail,20,CA,1552186800,77,52.02,-113.95,6.8,5.82
44,Isangel,64,VU,1552191139,100,-19.55,169.27,77.92,11.32
45,Kaduqli,0,SD,1552191139,30,11.01,29.72,64.33,9.19
46,Sitka,8,US,1552191139,53,37.17,-99.65,40.39,14.45
47,Kaitangata,20,NZ,1552191139,76,-46.28,169.85,60.64,19.71
48,Acapulco,5,MX,1552189380,78,16.86,-99.88,78.8,5.82
49,Arraial do Cabo,0,BR,1552191141,92,-22.97,-42.02,79.81,13.78
50,Kapit,12,MY,1552191141,75,2.02,112.94,83.86,2.26
51,Yar-Sale,92,RU,1552191141,90,66.83,70.83,22.07,15.12
52,Ulagan,0,RU,1552191141,73,50.63,87.96,8.89,3.38
53,Rafaela,0,AR,1552191082,66,-31.25,-61.49,62.01,4
54,Busselton,76,AU,1552191018,39,-33.64,115.35,77,10.87
55,Ugoofaaru,12,MV,1552191144,100,5.67,73,81.29,8.41
56,Nongan,0,CN,1552190400,14,44.43,125.17,41,2.24
57,Balaipungut,44,ID,1552191145,92,1.11,101.31,79.45,3.6
58,Padang,40,ID,1552186800,74,-0.92,100.36,82.4,9.17
59,Hasaki,75,JP,1552190743,48,35.73,140.83,63,8.05
60,Poum,0,MK,1552188600,75,41.28,20.71,46.4,6.93
61,Shaowu,76,CN,1552191146,86,27.34,117.49,52.9,2.59
62,Okha,20,RU,1552191146,92,53.59,142.95,23.74,12.66
63,Butaritari,88,KI,1552191146,100,3.07,172.79,76.61,4.94
64,Nargana,80,PA,1552191147,100,9.44,-78.59,79.63,17.47
65,Rome,0,IT,1552191124,87,41.89,12.48,55,9.17
66,Namatanai,92,PG,1552191150,100,-3.66,152.44,77.11,7.4
67,Punta Arenas,75,CL,1552190594,76,-53.16,-70.91,51.8,9.17
68,Baijiantan,68,CN,1552191150,89,45.63,85.18,25.94,3.27
69,Huilong,8,CN,1552191150,88,28.89,110.18,54.79,3.04
70,Bonavista,0,CA,1552190483,72,48.65,-53.11,18,13
71,Chokurdakh,80,RU,1552191151,84,70.62,147.9,-2.68,4.61
72,Rawson,0,AR,1552191151,21,-43.3,-65.11,63.79,10.98
73,Nikolskoye,75,RU,1552191035,80,59.7,30.79,35.6,8.95
74,Te Anau,0,NZ,1552191151,59,-45.41,167.72,67.52,2.82
75,Lavrentiya,80,RU,1552191152,99,65.58,-170.99,24.1,36.93
76,Dawson,90,US,1552191013,75,39.85,-89.46,46.4,29.97
77,Atuona,0,PF,1552191153,99,-9.8,-139.03,82.78,14.9
78,San Cristobal,0,EC,1552190445,87,-0.39,-78.55,53.6,2.24
79,Cherskiy,44,RU,1552191154,70,68.75,161.3,1.24,2.48
80,Qinzhou,64,CN,1552191154,92,21.96,108.62,61.27,11.1
81,Mataura,0,NZ,1552191007,77,-46.19,168.86,60.01,10
82,Qaanaaq,64,GL,1552191155,95,77.48,-69.36,-9.03,2.37
83,Mahebourg,20,MU,1552190948,94,-20.41,57.7,82,4.7
84,Makakilo City,40,US,1552191052,60,21.35,-158.09,77,10.29
85,Toora-Khem,44,RU,1552191155,46,52.47,96.11,17.44,3.38
86,Rafai,0,CF,1552191156,54,4.95,23.92,67.16,8.41
87,Tilichiki,0,RU,1552191156,79,60.47,166.1,9.88,3.94
88,Bluff,0,AU,1552191156,39,-23.58,149.07,93.13,7.18
89,Garowe,80,SO,1552191156,95,8.41,48.48,63.97,6.06
90,Madera,92,US,1552190884,81,36.96,-120.06,51.8,7.29
91,Geraldton,75,CA,1552186800,62,49.72,-86.95,23,3.36
92,Hermanus,64,ZA,1552190496,93,-34.42,19.24,66.99,1.99
93,Zyryanskoye,76,RU,1552191157,86,56.83,86.62,17.84,10.54
94,Bethel,90,US,1552190160,74,60.79,-161.76,37.4,9.17
95,Puerto Ayora,0,EC,1552191128,96,-0.74,-90.35,79.27,8.97
96,Klaksvik,76,FO,1552189800,100,62.23,-6.59,32,4.7
97,Chunoyar,68,RU,1552191163,58,57.45,97.32,19.06,7.85
98,Barra Patuca,36,HN,1552191164,89,15.8,-84.28,79.54,12.1
99,Alofi,88,NU,1552186800,66,-19.06,-169.92,86,11.41
100,Pevek,20,RU,1552191164,93,69.7,170.27,-4.93,2.71
101,Hualmay,64,PE,1552191165,83,-11.1,-77.61,70.54,4.38
102,Saskylakh,76,RU,1552191165,77,71.97,114.09,-4.21,8.75
103,Talara,48,PE,1552191165,77,-4.58,-81.27,75.22,5.17
104,Rocha,56,UY,1552191166,80,-34.48,-54.34,63.02,10.98
105,Vila Franca do Campo,75,PT,1552190973,82,37.72,-25.43,60.8,2.24
106,Kieta,76,PG,1552191166,98,-6.22,155.63,81.02,6.29
107,Alferrarede,24,PT,1552191119,93,39.48,-8.18,54,3.15
108,Saint-Philippe,1,CA,1552191006,61,45.36,-73.48,19.4,5.82
109,Nikolayevsk-na-amure,0,RU,1552191171,71,53.14,140.72,26.98,10.42
110,Natal,20,BR,1552186800,83,-5.81,-35.21,78.8,3.36
111,Port Alfred,88,ZA,1552191126,86,-33.59,26.89,66.99,5.01
112,Fort Frances,90,CA,1552190453,100,48.61,-93.4,32,5.82
113,Hilo,1,US,1552191136,60,19.71,-155.08,73.4,3.36
114,Codrington,8,AU,1552191131,34,-28.95,153.24,96.8,11.41
115,Atherton,92,GB,1552190965,86,53.52,-2.49,41,5.82
116,Popondetta,68,PG,1552191174,77,-8.77,148.24,79.27,2.59
117,Ribeira Grande,48,PT,1552191174,95,38.52,-28.7,61.9,10.2
118,Airai,56,TL,1552191174,59,-8.93,125.41,81.02,1.92
119,Hovd,20,NO,1552191013,92,63.83,10.7,28.99,3.36
120,Havelock,20,US,1552191001,93,34.88,-76.9,50,5.82
121,San Juan,40,PR,1552191058,83,18.47,-66.12,75.99,4.7
122,Ilulissat,36,GL,1552186200,78,69.22,-51.1,10.4,8.05
123,Diego de Almagro,0,CL,1552191177,90,-26.39,-70.05,59.02,0.81
124,Tigil,68,RU,1552191177,88,57.8,158.67,23.47,9.53
125,Georgetown,0,GY,1552186800,94,6.8,-58.16,75.2,6.93
126,Thompson,75,CA,1552186800,77,55.74,-97.86,5,12.75
127,Galle,1,US,1552191141,51,29.74,-97.91,72,6.93
128,Kinatakutan,24,PH,1552191180,83,13.95,122.48,83.14,3.38
129,Khandbari,12,NP,1552191181,62,27.38,87.21,29.14,1.14
130,Khatanga,80,RU,1552191181,66,71.98,102.47,-9.34,9.53
131,Carnarvon,24,ZA,1552191181,97,-30.97,22.13,47.99,5.61
132,Chuy,92,UY,1552191181,98,-33.69,-53.46,66.31,16.58
133,Ancud,0,CL,1552190400,71,-41.87,-73.83,53.6,4.7
134,Wegorzewo,76,PL,1552191181,90,54.22,21.74,35.8,15.01
135,Black River,20,JM,1552190425,57,18.03,-77.85,80.6,6.93
136,Puerto Escondido,0,MX,1552191182,100,15.86,-97.07,82.24,6.17
137,Yurga,56,RU,1552191184,83,55.71,84.93,14.47,10.2
138,Tomatlan,0,MX,1552191184,91,19.93,-105.25,69.91,2.48
139,Zarubino,32,RU,1552191184,63,42.65,131.06,40.93,3.71
140,Spring Valley,1,US,1552191010,64,41.11,-74.04,39.2,6.93
141,Taga,75,JP,1552191029,93,35.21,136.34,55,9.17
142,Kenora,90,CA,1552191166,92,49.76,-94.48,26.6,9.17
143,Haines Junction,76,CA,1552191186,83,60.75,-137.51,19.01,3.15
144,Gondanglegi,24,ID,1552191186,83,-7.75,112.01,83.23,5.61
145,Muli,12,IN,1552191186,48,22.62,71.45,69.73,3.04
146,Dunda,0,IN,1552190400,55,30.62,78.32,62.6,3.36
147,Balangiga,36,PH,1552191187,89,11.11,125.39,80.44,4.72
148,Cidreira,100,BR,1552191188,92,-30.17,-50.22,71.35,12.44
149,Henties Bay,68,NA,1552190580,87,-22.12,14.28,62.01,3
150,Harfleur,90,FR,1552191044,93,49.51,0.2,54,21.92
151,Moose Factory,1,CA,1552186800,47,51.26,-80.61,14,9.17
152,Barabai,24,ID,1552191189,70,-2.59,115.38,87.37,2.15
153,Westport,92,IE,1552191184,88,53.8,-9.52,42.01,11.99
154,East London,90,ZA,1552187700,100,-33.02,27.91,66.2,12.75
155,Novobirilyussy,44,RU,1552191189,82,56.95,90.69,18.79,5.39
156,Dhidhdhoo,8,MV,1552191190,100,6.88,73.1,81.25,7.07
157,Santa Isabel,24,CO,1552191190,80,4.71,-75.1,65.59,2.71
158,Presidencia Roque Saenz Pena,88,AR,1552190921,77,-26.79,-60.44,68.29,14.67
159,Awjilah,0,LY,1552191190,53,29.14,21.3,51.86,6.85
160,Ossora,20,RU,1552191191,99,59.24,163.07,16.45,2.93
161,Yulara,0,AU,1552190400,16,-25.24,130.99,104,6.93
162,Palauig,8,PH,1552191191,72,15.44,119.9,83.5,3.94
163,Khilok,12,RU,1552191191,41,51.36,110.46,24.86,9.42
164,Mount Isa,0,AU,1552190400,29,-20.73,139.49,98.6,12.75
165,Libreville,20,GA,1552186800,94,0.39,9.45,77,6.93
166,Port Elizabeth,90,US,1552191176,86,39.31,-74.98,41,10.29
167,Norilsk,64,RU,1552191113,82,69.35,88.2,2.95,12.44
168,Saint Anthony,20,US,1552190160,84,43.97,-111.68,28.4,3.36
169,Terrasini,0,IT,1552191166,76,38.15,13.08,55,5.82
170,Mabaruma,64,GY,1552191192,84,8.2,-59.78,77.65,7.18
171,Sungaipenuh,8,ID,1552191192,82,-2.08,101.38,74.5,0.92
172,High Rock,68,BS,1552191193,100,26.63,-78.28,75.76,20.04
173,Tasiilaq,24,GL,1552186200,52,65.61,-37.64,17.6,2.24
174,Gorontalo,64,ID,1552191193,63,0.54,123.06,85.12,2.37
175,Hanyang,80,CN,1552191068,60,32.14,105.51,60.01,1.01
176,Bontang,64,ID,1552191193,85,0.12,117.47,85.3,0.92
177,Corsicana,1,US,1552191185,38,32.09,-96.46,66,4.7
178,Fairview,1,US,1552190961,55,40.81,-74,39.2,7.29
179,Manicaragua,32,CU,1552189800,83,22.14,-79.97,75.2,6.93
180,Khandyga,56,RU,1552191194,64,62.65,135.58,8.08,2.59
181,Bubaque,0,GW,1552191195,100,11.28,-15.83,75.04,6.96
182,Kedainiai,0,LT,1552188000,90,55.29,23.97,35.6,6.93
183,Dingle,8,PH,1552191195,53,11,122.67,88.04,2.93
184,Tchollire,0,CM,1552191195,65,8.4,14.17,69.1,2.71
185,Harrisonville,75,US,1552190999,64,38.65,-94.35,37.99,17.22
186,Sinnamary,92,GF,1552191195,93,5.38,-52.96,79.63,13.22
187,Aklavik,75,CA,1552186800,63,68.22,-135.01,28.4,9.17
188,Saint-Pierre,92,FR,1552191125,93,48.95,4.24,53.6,26.4
189,Hirara,75,JP,1552186800,83,24.8,125.28,71.6,17.22
190,Panaba,12,MX,1552191196,68,21.28,-88.27,78.73,8.63
191,Harwich,1,US,1552190968,51,41.69,-70.08,37,9.17
192,Leningradskiy,44,RU,1552191196,81,69.38,178.42,-1.92,6.17
193,Tecpatan,20,MX,1552185960,61,17.13,-93.3,82.4,8.05
194,Longyearbyen,75,NO,1552189800,65,78.22,15.63,6.8,2.24
195,Matay,0,EG,1552191197,60,28.42,30.79,47.95,9.19
196,Vila Velha,40,BR,1552190895,88,-3.71,-38.6,78.8,4.7
197,Netarhat,0,IN,1552191197,41,23.45,84.31,73.87,4.16
198,Nouadhibou,0,MR,1552186800,77,20.93,-17.03,62.6,23.04
199,Grindavik,20,IS,1552190452,74,63.84,-22.43,30.2,4.7
200,Abha,0,SA,1552186800,54,18.22,42.5,57.2,2.37
201,Shimoda,75,JP,1552190329,63,34.7,138.93,62.6,5.82
202,Tucuman,12,PE,1552191117,81,-17.17,-70.89,58.79,0.47
203,Faya,0,SA,1552186800,54,18.39,42.45,57.2,2.48
204,Saldanha,0,PT,1552191199,81,41.42,-6.55,37.15,3.27
205,Riyadh,0,SA,1552190400,43,24.63,46.72,50,5.17
206,Banda Aceh,0,ID,1552191199,70,5.56,95.32,85.39,1.92
207,Port Hawkesbury,1,CA,1552191057,66,45.62,-61.36,17.01,10.29
208,Cabo San Lucas,40,MX,1552190743,68,22.89,-109.91,69.8,3.36
209,Lorengau,88,PG,1552191200,100,-2.02,147.27,82.42,8.97
210,Meadow Lake,56,CA,1552191200,70,54.13,-108.44,7.67,3.6
211,Victoria,75,BN,1552190400,70,5.28,115.24,87.8,5.82
212,Hambantota,20,LK,1552187400,83,6.12,81.12,84.2,2.24
213,Soke,0,ML,1552191201,38,13.6,-5.94,61.54,8.63
214,Ajdabiya,0,LY,1552191201,66,30.75,20.22,46.51,4.61
215,Hami,32,CN,1552191201,60,42.84,93.51,36.61,8.19
216,Vieux Fort,40,LC,1552190476,78,13.72,-60.95,78.8,20.8
217,San Gabriel,90,US,1552191051,57,34.1,-118.11,55.99,2.48
218,Shitanjing,0,CN,1552191202,40,39.23,106.34,34.27,6.4
219,Kodiak,90,US,1552191170,59,39.95,-94.76,34,23.04
220,Arawa,64,NG,1552191202,93,7.05,3.9,72.11,2.48
221,Tuktoyaktuk,40,CA,1552186800,85,69.44,-133.03,14,8.05
222,Nordfjordeid,64,NO,1552190991,68,61.91,5.99,30.2,6.93
223,Copiapo,20,CL,1552190400,72,-27.37,-70.33,62.6,9.17
224,Saryg-Sep,0,RU,1552191204,67,51.49,95.55,19.6,2.93
225,Kangaatsiaq,76,GL,1552191204,100,68.31,-53.46,16.22,15.01
226,Hamilton,75,BM,1552190504,72,32.3,-64.78,66.2,8.05
227,Taoudenni,0,ML,1552191205,42,22.68,-3.98,53.89,9.08
228,Launceston,75,AU,1552191035,60,-41.43,147.14,68,19.46
229,Kentau,0,KZ,1552191205,97,43.52,68.5,28.82,2.15
230,College,1,US,1552191033,51,64.86,-147.8,37.4,6.93
231,Cascais,20,PT,1552191195,93,38.7,-9.42,55,9.17
232,Praia da Vitoria,75,PT,1552190470,82,38.73,-27.07,62.6,9.53
233,Urengoy,80,RU,1552191206,83,65.96,78.37,18.34,19.48
234,Kailua,75,US,1552190755,83,21.39,-157.74,77,12.75
235,Mayo,75,CA,1552186800,49,63.59,-135.9,23,10.29
236,Sibolga,24,ID,1552191206,94,1.74,98.78,75.49,1.48
237,Kargasok,56,RU,1552191206,68,59.06,80.87,22.12,7.74
238,Locri,20,IT,1552191099,82,38.24,16.26,55.4,8.05
239,Otane,80,NZ,1552190058,81,-39.89,176.62,64.99,1.01
240,Paamiut,8,GL,1552191207,99,61.99,-49.67,27.88,16.8
241,Nanortalik,64,GL,1552191207,95,60.14,-45.24,24.55,1.03
242,Myrtle Beach,90,US,1552191198,100,33.7,-78.89,60.01,3.36
243,Umm Lajj,0,SA,1552191207,95,25.02,37.27,60.1,8.63
244,Srednekolymsk,64,RU,1552191208,67,67.46,153.71,2.05,3.38
245,Iqaluit,20,CA,1552191165,75,63.75,-68.52,-13.01,10.29
246,Port-Cartier,5,CA,1552190416,59,50.03,-66.88,7,5.82
247,Mezen,92,RU,1552191209,94,65.85,44.24,29.32,6.85
248,Taikang,8,CN,1552191209,37,46.86,124.44,42.41,9.75
249,Ulladulla,40,AU,1552190414,48,-35.36,150.48,86,14.99
250,Svetlaya,0,RU,1552191209,69,46.54,138.33,37.06,8.97
251,La Ronge,5,CA,1552186800,61,55.1,-105.3,12.2,6.93
252,Douglas,1,US,1552191151,23,31.34,-109.55,53.6,10.29
253,Wattegama,0,LK,1552191211,81,7.35,80.68,76.21,3.83
254,Ambanja,8,MG,1552191211,96,-13.68,48.45,70.18,2.37
255,Sabha,0,LY,1552191211,22,27.03,14.43,59.42,13.44
256,Los Llanos de Aridane,0,ES,1552190702,68,28.66,-17.92,64.4,12.75
257,Neyshabur,44,IR,1552191211,87,36.21,58.79,29.05,5.06
258,Peruibe,92,BR,1552191168,100,-24.32,-47,76.39,20.71
259,Adrar,0,DZ,1552186800,28,27.87,-0.29,68,26.4
260,Susanville,90,US,1552191149,69,40.42,-120.65,35.6,3.6
261,Dhamrai,44,BD,1552190400,61,23.92,90.21,77,9.17
262,Skelleftea,88,SE,1552191097,92,64.75,20.95,21.2,9.17
263,Dunmore Town,76,BS,1552191212,100,25.5,-76.65,75.71,20.6
264,Miasskoye,75,RU,1552191004,74,55.28,61.89,30.2,13.42
265,North Platte,1,US,1552191054,73,41.12,-100.77,26.6,10.29
266,Sorland,20,NO,1552186200,58,67.67,12.69,26.6,16.11
267,Santiago del Estero,36,AR,1552191025,70,-27.8,-64.26,61,8.75
268,Lompoc,90,US,1552191033,87,34.64,-120.46,51.8,5.73
269,Ponta do Sol,8,BR,1552191214,90,-20.63,-46,68.24,3.38
270,Belle Glade,75,US,1552191210,100,26.68,-80.67,75.99,6.73
271,Peniche,20,PT,1552191121,93,39.36,-9.38,55,9.17
272,Harper,1,US,1552191208,57,30.3,-99.24,64.99,3.04
273,Flinders,40,AU,1552191133,48,-34.58,150.85,93.99,14.99
274,Yellowknife,90,CA,1552191169,84,62.45,-114.38,5,6.93
275,Springbok,64,ZA,1552191215,95,-29.67,17.88,49.3,7.63
276,Honiara,80,SB,1552191215,100,-9.43,159.96,76.66,0.92
277,Olginskaya,44,RU,1552191216,81,45.94,38.55,41.02,13
278,Kachiry,0,KZ,1552191216,64,53.07,76.1,3.58,5.61
279,Pangai,20,TO,1552186800,74,-19.8,-174.35,86,9.17
280,Rincon,75,US,1552191198,88,32.3,-81.24,66.2,5.82
281,Tabuk,0,PH,1552191219,53,17.41,121.44,82.19,2.37
282,Belmonte,0,PT,1552190493,96,40.36,-7.35,48,2.59
283,Souillac,90,FR,1552191130,87,45.6,-0.6,54,18.34
284,Bathsheba,20,BB,1552190400,69,13.22,-59.52,78.8,19.46
285,Labuhan,12,ID,1552191221,66,-2.54,115.51,87.82,2.15
286,Beloha,0,MG,1552191221,86,-25.17,45.06,70,10.65
287,Saint-Augustin,90,FR,1552191130,100,44.83,-0.61,55.4,11.41
288,Patos,0,BR,1552191124,71,-7.03,-37.28,73.33,6.96
289,Buchanan,20,LR,1552186800,94,5.88,-10.05,75.2,4.61
290,Kiunga,64,PG,1552191224,83,-6.12,141.3,81.47,2.37
291,Eureka,40,US,1552191144,100,40.8,-124.16,44.6,5.82
292,Sao Filipe,0,CV,1552191224,96,14.9,-24.5,70.49,17.25
293,Metro,68,ID,1552191224,84,-5.11,105.31,85.21,6.73
294,Zhuanghe,80,CN,1552191036,96,39.7,122.97,35.01,1.01
295,Dunedin,76,NZ,1552190939,88,-45.87,170.5,57.99,15.99
296,Salacgriva,88,LV,1552191016,92,57.75,24.36,35.01,5.99
297,Pauini,32,BR,1552191226,92,-7.71,-67,76.84,1.92
298,Matara,48,PE,1552191226,84,-13.74,-72.9,45.16,1.92
299,Clyde River,1,CA,1552186800,74,70.47,-68.59,-25.61,2.24
300,Maralal,0,KE,1552191226,84,1.1,36.7,51.41,3.71
301,Guerrero Negro,92,MX,1552191227,79,27.97,-114.04,56.68,10.65
302,Provideniya,80,RU,1552191227,100,64.42,-173.23,23.42,33.58
303,Kutahya,0,TR,1552186200,82,39.42,29.98,33.8,3.36
304,Ati,0,TD,1552191227,19,13.21,18.34,70.18,9.31
305,Cockburn Town,92,TC,1552191206,98,21.46,-71.14,77.87,20.27
306,Coracao de Jesus,0,BR,1552186800,61,-16.69,-44.37,78.8,4.5
307,Nome,90,US,1552191218,88,30.04,-94.42,72,6.93
308,Dalianwan,20,CN,1552191156,70,39.03,121.69,46.4,11.18
309,Longhua,76,CN,1552191230,98,29.21,106.21,54.47,4.05
310,Kloulklubed,90,PW,1552189800,78,7.04,134.26,82.4,14.99
311,Luderitz,8,NA,1552191230,83,-26.65,15.16,59.96,16.91
312,Salalah,0,OM,1552189800,12,17.01,54.1,80.6,11.41
313,Deep River,1,CA,1552190466,49,46.1,-77.49,24.8,6.93
314,Atar,0,MR,1552191231,43,20.52,-13.05,55.96,7.85
315,Shingu,75,JP,1552186800,72,33.72,135.99,59,16.11
316,Christchurch,92,NZ,1552191002,93,-43.53,172.64,63,11.41
317,Comodoro Rivadavia,0,AR,1552186800,81,-45.87,-67.48,53.6,0.02
318,Verkhniy Avzyan,92,RU,1552191231,92,53.53,57.54,29.86,11.99
319,Caraballeda,36,VE,1552191079,96,10.61,-66.85,75.71,15.23
320,Toamasina,75,MG,1552186800,94,-18.17,49.38,75.2,5.82
321,Tongren,32,CN,1552191233,97,27.72,109.18,53.39,3.49
322,Gillette,1,US,1552190952,85,44.29,-105.5,18,3.49
323,Dali,0,CN,1552191233,85,25.6,100.24,51.19,1.92
324,Mandalgovi,8,MN,1552191233,87,45.76,106.27,29.59,10.31
325,Faanui,68,PF,1552191234,99,-16.48,-151.75,84.62,9.19
326,Upernavik,20,GL,1552191234,100,72.79,-56.15,1.42,17.58
327,Marsa Matruh,0,EG,1552191234,75,31.35,27.25,34.31,3.04
328,Lincoln,90,US,1552191218,89,40.8,-96.67,32,29.97
329,Venado Tuerto,0,AR,1552191234,80,-33.75,-61.97,53.8,5.17
330,Fortuna,0,ES,1552191216,80,38.18,-1.13,51.01,5.82
331,Vanimo,68,PG,1552191235,100,-2.67,141.3,79.81,6.73
332,Sibiti,80,CG,1552191235,93,-3.69,13.35,72.29,3.04
333,Sechura,20,PE,1552191070,82,-5.56,-80.82,75.62,7.29
334,Russell,40,AR,1552186800,93,-33.01,-68.8,55.4,3.36
335,Marsh Harbour,56,BS,1552191235,100,26.54,-77.06,75.31,19.6
336,Port-Gentil,76,GA,1552191236,96,-0.72,8.78,81.43,4.16
337,Gudivada,20,IN,1552186800,83,16.43,80.99,82.4,2.26
338,Dankov,76,RU,1552191236,91,53.25,39.16,27.88,11.88
339,Ostrovnoy,88,RU,1552191236,90,68.05,39.51,19.24,15.46
340,Kavaratti,0,IN,1552191026,100,10.57,72.64,81.47,6.29
341,Ormara,0,PK,1552191236,98,25.21,64.64,66.76,7.63
342,Sovetskiy,64,RU,1552191237,89,56.76,48.47,28.64,12.77
343,Kokopo,92,PG,1552191238,100,-4.34,152.27,78.86,7.63
344,Klyuchevskiy,64,RU,1552191239,49,53.53,119.45,29.23,3.6
345,Samarai,36,PG,1552191239,100,-10.62,150.67,83.77,9.19
346,Altona,90,US,1552191090,86,41.11,-90.16,41,25.28
347,Baturyn,20,UA,1552191239,88,51.33,32.89,36.02,10.76
348,Inuvik,75,CA,1552186800,63,68.36,-133.71,28.4,9.17
349,Belyy Yar,0,RU,1552190400,20,53.6,91.39,30.2,11.18
350,Xunchang,80,CN,1552191239,92,28.45,104.71,52.76,3.38
351,Fairbanks,1,US,1552191033,51,64.84,-147.72,37.4,6.93
352,Nouakchott,0,MR,1552188600,93,18.08,-15.98,60.8,9.17
353,Homer,90,US,1552191231,86,59.64,-151.54,37.99,23.04
354,Mitsamiouli,75,KM,1552186800,83,-11.38,43.28,82.4,4.7
355,Sambava,44,MG,1552191241,100,-14.27,50.17,78.19,5.39
356,Varzea Grande,92,BR,1552191198,88,-29.42,-50.86,70,3.36
357,Ayna,0,ES,1552190411,75,38.55,-2.07,46.99,5.82
358,Dawson Creek,1,CA,1552186800,72,55.76,-120.23,19.4,4.7
359,Arevashogh,24,AM,1552190400,92,40.85,44.28,17.6,2.15
360,Boa Vista,0,BR,1552190400,54,2.82,-60.67,84.2,12.75
361,Chegdomyn,0,RU,1552191244,49,51.13,133.04,27.88,3.6
362,Manavalakurichi,20,IN,1552190400,62,8.13,77.3,89.6,3.36
363,Kaeo,44,NZ,1552190884,62,-35.1,173.78,73.99,5.99
364,Port Moresby,40,PG,1552186800,70,-9.47,147.16,87.8,17.22
365,Xuchang,0,CN,1552190400,38,34.03,113.82,60.8,8.95
366,Tecpan,20,GT,1552190435,77,14.76,-90.99,64.4,13.87
367,Bilibino,0,RU,1552191246,71,68.06,166.44,2.72,3.15
368,Carcassonne,0,FR,1552190833,87,43.21,2.35,57,8.05
369,Camacha,40,PT,1552188600,72,33.08,-16.33,60.8,13.87
370,Port Hedland,0,AU,1552190400,14,-20.31,118.58,113,13.87
371,Werda,90,DE,1552191209,93,50.44,12.3,44.01,6.93
372,Ahipara,12,NZ,1552191246,79,-35.17,173.16,70.04,9.19
373,Balabac,8,PH,1552191246,98,7.99,117.06,82.15,7.52
374,Mascota,5,MX,1552191010,100,20.53,-104.79,75,1.59
375,Severo-Yeniseyskiy,56,RU,1552191247,66,60.37,93.04,15.91,4.83
376,Deputatskiy,36,RU,1552191248,86,69.3,139.9,-7.68,3.83
377,Mercedes,8,UY,1552191249,78,-33.25,-58.03,65.23,11.1
378,Yeppoon,0,AU,1552190400,41,-23.13,150.74,91.4,10.29
379,Veraval,92,FR,1552191044,100,49.65,0.71,53.01,19.46
380,Petropavlovsk-Kamchatskiy,8,RU,1552190400,42,53.05,158.65,28.4,13.42
381,Puerto Quijarro,80,BO,1552191249,94,-19,-57.72,74.81,2.37
382,Omboue,76,GA,1552191249,100,-1.57,9.26,80.17,3.83
383,Vila,0,IT,1552191246,87,45.18,8.4,48.99,6.93
384,Gornopravdinsk,88,RU,1552191250,82,60.06,69.92,26.44,11.1
385,Najran,68,SA,1552191250,49,17.54,44.22,57.17,1.92
386,Fez,0,MA,1552188600,71,34.03,-5.02,50,8.05
387,Donskoye,0,RU,1552190400,36,45.45,41.98,48.2,4.47
388,Krasnorechenskiy,0,RU,1552191251,21,44.63,135.35,41.24,2.93
389,Mumbwa,76,ZM,1552191251,96,-14.99,27.06,64.33,6.85
390,Teberda,64,RU,1552191251,60,43.44,41.74,20.05,1.14
391,Manoel Urbano,36,BR,1552190976,95,-8.84,-69.26,73.82,1.36
392,Simplicio Mendes,64,BR,1552191253,66,-7.85,-41.91,78.1,7.4
393,Kavieng,76,PG,1552191253,100,-2.57,150.8,80.98,3.94
394,Hokitika,44,NZ,1552191254,75,-42.72,170.96,68.11,2.37
395,Muzaffarabad,12,PK,1552191254,64,34.37,73.47,41.29,3.38
396,Pacific Grove,90,US,1552191017,81,36.62,-121.92,48.99,6.93
397,Sahuaripa,92,MX,1552191254,52,29.05,-109.23,57.71,3.94
398,Valdivia,0,CL,1552190400,87,-39.81,-73.25,51.8,3.36
399,Palmer,75,AU,1552191207,69,-34.85,139.16,78.01,8.05
400,Sao Joao da Barra,64,BR,1552191013,97,-21.64,-41.05,82.96,18.59
401,Pullman,1,US,1552191030,78,46.73,-117.17,28.4,3.15
402,Anadyr,75,RU,1552191190,77,64.73,177.51,5,6.71
403,Bozhou,0,CN,1552191255,57,33.86,115.78,60.64,4.61
404,Sri Aman,75,MY,1552190400,66,1.24,111.46,89.6,2.24
405,Kaduy,40,RU,1552190400,74,59.2,37.15,30.2,6.71
406,Yaan,48,NG,1552191256,91,7.38,8.57,74.81,7.74
407,Waingapu,20,ID,1552191256,76,-9.65,120.26,85.66,3.15
408,Tangshan,0,CN,1552191256,57,39.63,118.17,50.11,9.64
409,Ralivka,90,UA,1552191112,80,49.5,23.23,41,22.37
410,Alta Floresta,64,BR,1552191256,93,-9.87,-56.08,76.48,1.92
411,Komsomolskiy,88,RU,1552191257,84,67.55,63.78,19.87,10.98
412,Obo,0,CF,1552191257,50,5.39,26.49,63.61,6.06
413,Blackwater,92,GB,1552191245,93,51.33,-0.78,52,3.36
414,Catalina Foothills,1,US,1552191035,43,32.3,-110.92,55.99,3.36
415,Saint George,0,GR,1552188000,43,39.45,22.34,55.4,5.82
416,Nago,0,IT,1552191248,93,45.88,10.89,48.2,3.36
417,Tougan,8,BF,1552191261,41,13.07,-3.07,62.21,5.61
418,Aksarka,80,RU,1552191261,89,66.56,67.8,21.22,10.87
419,Constitucion,40,MX,1552191016,21,23.99,-104.67,60.8,10.29
420,Itarema,76,BR,1552191262,95,-2.92,-39.92,74.72,4.27
421,Margate,75,AU,1552191254,40,-43.03,147.26,73.99,17.22
422,Sept-Iles,5,CA,1552190416,59,50.2,-66.38,7,5.82
423,Salinopolis,92,BR,1552191262,100,-0.61,-47.36,78.28,6.96
424,Zhaotong,100,CN,1552191262,75,27.34,103.71,43.67,3.38
425,Vrises,1,GR,1552191044,78,35.49,23.89,63,16.11
426,Maragogi,76,BR,1552191263,96,-9.01,-35.22,75.89,4.16
427,Taltal,8,CL,1552191264,90,-25.41,-70.49,57.04,1.03
428,Otukpo,48,NG,1552191264,91,7.19,8.13,74.81,7.74
429,Tromso,0,NO,1552190806,84,69.65,18.96,21.2,10.29
430,Miraflores,76,CO,1552191265,99,5.2,-73.14,50.11,1.25
431,San Joaquin,8,PH,1552191265,53,10.59,122.14,88.04,2.93
432,Xiaoweizhai,32,CN,1552191266,88,26.23,107.51,51.14,3.38
433,Teguise,0,ES,1552188600,77,29.06,-13.56,62.6,16.11
434,Canutama,32,BR,1552191266,98,-6.53,-64.38,75.67,0.69
435,Carbonia,0,IT,1552188000,100,39.17,8.53,46.4,6.93
436,Mazamet,90,FR,1552191133,93,43.49,2.38,57,1.12
437,Kedrovyy,40,RU,1552190400,62,56.17,91.82,23,11.18
438,Haikou,90,CN,1552190400,88,20.04,110.34,69.8,8.95
439,Yicheng,0,CN,1552191270,66,31.71,112.27,61.9,0.92
440,Huizhou,100,CN,1552191270,100,23.11,114.41,58.75,5.39
441,Vardo,90,US,1552191269,100,39.62,-77.74,37.4,5.82
442,Kysyl-Syr,32,RU,1552191271,61,63.9,122.77,15.86,7.07
443,Vestmanna,68,FO,1552189800,100,62.16,-7.17,32,4.7
444,Cherdakly,48,RU,1552190400,92,54.36,48.84,26.6,4.47
445,Kichmengskiy Gorodok,36,RU,1552191271,76,59.99,45.81,26.8,12.33
446,Halifax,5,CA,1552191068,85,44.65,-63.58,21,6.93
447,Pemba,75,MZ,1552186800,94,-12.97,40.52,77,5.82
448,Agadir,0,MA,1552188600,76,30.42,-9.58,51.8,4.7
449,The Pas,75,CA,1552187820,73,53.82,-101.24,19.4,9.17
450,Vanavara,64,RU,1552191272,58,60.35,102.28,16.54,11.65
451,Merauke,48,ID,1552191272,97,-8.49,140.4,83.23,3.6
452,Xiongzhou,40,CN,1552191271,62,32.34,118.83,63,4.47
453,Uzhur,56,RU,1552191272,47,55.32,89.85,23.38,5.39
454,Simonesti,48,RO,1552190400,81,46.33,25.1,48.2,13.87
455,Baoding,20,CN,1552191274,50,38.86,115.49,52.49,4.5
456,Kupiskis,92,LT,1552191274,95,55.83,24.97,36.74,22.28
457,Hay River,20,CA,1552186800,72,60.82,-115.79,17.6,11.41
458,Port Lincoln,80,AU,1552191275,83,-34.72,135.86,72.61,16.69
459,Fare,80,PF,1552191275,99,-16.7,-151.02,84.49,9.42
460,Mackenzie,1,CA,1552186800,78,55.34,-123.09,17.6,3.94
461,Esperance,20,TT,1552191007,83,10.24,-61.45,75.2,8.05
462,Nipawin,1,CA,1552186800,61,53.36,-104.02,14,11.41
463,Esso,64,RU,1552191276,85,55.93,158.7,13.48,1.36
464,Saint-Georges,0,CA,1552190492,68,46.12,-70.67,6.01,3
465,Cairns,90,AU,1552190418,83,-16.92,145.77,82.99,13.87
466,Aranos,0,NA,1552191281,34,-24.14,19.11,64.06,8.19
467,Kupang,90,ID,1552190400,94,-10.16,123.6,75.2,10.29
468,Kristiansund,88,NO,1552189800,80,63.12,7.73,30.2,27.51
469,Nunoa,92,PE,1552191281,98,-14.48,-70.64,34.67,1.92
470,Beipiao,56,CN,1552191281,49,41.8,120.76,40.52,3.04
471,Naustdal,64,NO,1552190991,68,61.51,5.72,30.2,6.93
472,Qaqortoq,75,GL,1552189800,58,60.72,-46.03,26.6,3.36
473,Karpathos,0,GR,1552188000,62,35.51,27.21,59,5.82
474,Chilca,0,PE,1552190400,66,-13.22,-72.34,53.6,0.58
475,Meulaboh,48,ID,1552191282,100,4.14,96.13,78.77,5.73
476,Avera,1,US,1552191056,77,33.19,-82.53,62.6,10.2
477,Kruisfontein,88,ZA,1552191282,88,-34,24.73,65.27,10.98
478,Byron Bay,32,AU,1552191131,66,-28.65,153.62,96.8,18.34
479,Pisco,75,PE,1552190400,78,-13.71,-76.2,73.4,4.7
480,Ngunguru,88,NZ,1552190884,62,-35.62,174.5,73.99,5.99
481,Goure,0,NE,1552191284,20,13.98,10.27,73.64,11.77
482,Khonsa,44,IN,1552191284,87,26.99,95.51,61.54,2.48
483,Ust-Kuyga,20,RU,1552191284,74,70,135.55,-3.72,4.27
484,Pahrump,1,US,1552191193,42,36.21,-115.98,53.01,5.82
485,Ponnani,40,IN,1552190400,70,10.77,75.93,87.8,3.36
486,Mattru,0,SL,1552191285,91,7.62,-11.83,76.34,3.94
487,Tura,0,IN,1552191285,67,25.52,90.21,69.14,3.27
488,Marsabit,0,KE,1552191285,71,2.34,37.99,68.42,7.96
489,Ewo,44,CG,1552191285,96,-0.88,14.81,68.92,6.85
490,Hulan,0,IR,1552190400,86,34.23,47.18,30.2,4.7
491,Wajid,0,SO,1552191286,54,3.81,43.25,72.02,10.65
492,Port Hardy,5,CA,1552186800,69,50.7,-127.42,33.8,4.7
493,Cayenne,75,GF,1552190400,83,4.94,-52.33,78.8,9.17
494,Road Town,1,VG,1552191155,69,18.42,-64.62,77,13.87
495,Dapaong,76,TG,1552191248,71,10.86,0.2,76.79,2.82
496,Great Falls,1,US,1552191285,78,47.5,-111.29,21,1.7
497,Hibbing,90,US,1552190526,74,47.43,-92.94,30.2,8.86
498,Manadhoo,12,MV,1552191090,100,5.77,73.38,81.29,7.63
499,Boda,5,BD,1552188600,53,26.2,88.56,75.2,6.93
500,Karratha,0,AU,1552191287,18,-20.74,116.85,105.91,5.95
501,Humboldt,0,CA,1552191031,71,52.21,-105.12,2.72,7.63
502,Amahai,92,ID,1552191291,100,-3.31,129,76.79,10.54
503,Zhigalovo,24,RU,1552191291,50,54.81,105.15,17.08,5.5
504,Banjar,56,ID,1552191292,77,-7.37,108.54,81.29,3.94
505,Yumen,20,CN,1552191292,61,40.29,97.04,34.72,4.72
506,Grand Gaube,20,MU,1552191248,94,-20.01,57.66,82,4.7
507,Saint-Joseph,0,FR,1552191095,93,43.56,6.97,53.6,5.82
508,Dakar,0,SN,1552186800,93,14.69,-17.45,66.2,6.93
509,Dubti,0,ET,1552191296,81,11.74,41.09,67.3,4.16
510,Hobyo,92,SO,1552191296,87,5.35,48.53,77.47,16.13
511,Chapais,1,CA,1552186800,59,49.78,-74.86,1.4,6.93
512,Turek,88,PL,1552191243,64,52.02,18.5,39.99,11.01
513,Cedar City,1,US,1552190441,69,37.68,-113.06,33.8,4.7
514,Curaca,12,BR,1552191297,57,-8.99,-39.91,80.84,11.54
515,Auki,88,NG,1552191297,33,12.18,6.51,76.75,5.84
516,Tuatapere,0,NZ,1552191007,77,-46.13,167.69,60.01,10
517,Akropong,12,GH,1552191299,90,5.97,-0.09,70.45,3.15
518,Le Port,0,FR,1552191195,10,42.87,1.37,51.01,58
519,Broken Hill,12,AU,1552186800,16,-31.97,141.45,95,18.34
520,Cajabamba,76,EC,1552191301,95,-1.7,-78.77,45.7,1.59
521,Minokamo,75,JP,1552191029,93,35.44,137.02,52,9.17
522,Shar,36,NG,1552191301,93,7.3,8.73,74.77,8.63
523,Wadena,0,CA,1552191301,68,51.95,-103.8,3.4,7.4
524,Buala,36,SB,1552191302,100,-8.15,159.59,81.47,1.48
525,Dingli,0,MT,1552191059,100,35.86,14.38,57,3.36
526,Rochefort,90,FR,1552190476,87,45.94,-0.97,54,17.22
527,Mangai,80,CD,1552191304,99,-4.07,19.59,70.04,4.61
528,Port Blair,20,IN,1552186800,70,11.67,92.75,84.2,9.17
529,Graaff-Reinet,92,ZA,1552191305,96,-32.25,24.53,58.48,4.61
530,Swellendam,92,ZA,1552186800,77,-34.02,20.44,69.8,14.99
531,Fergus Falls,90,US,1552190934,92,46.28,-96.08,30.2,16.11
532,Campoverde,0,IT,1552191304,87,41.54,12.73,55,9.17
533,Polunochnoye,56,RU,1552191306,84,60.87,60.43,29.95,10.2
534,Puerto del Rosario,0,ES,1552188600,82,28.5,-13.86,62.6,17.22
535,Tipuani,64,BO,1552191306,89,-15.56,-68.02,67.07,1.92
536,Sisimiut,68,GL,1552191306,78,66.94,-53.67,5.96,1.03
537,Husainabad,0,IN,1552191307,51,24.53,84.02,70.81,3.94
538,Chimbote,0,PE,1552191307,89,-9.08,-78.59,71.62,6.17
539,Mayumba,88,GA,1552191307,97,-3.44,10.65,79.9,4.27
540,Kokino,75,RU,1552190400,95,53.16,34.12,35.6,6.71
541,Chicama,0,PE,1552190400,88,-7.84,-79.15,71.6,6.93
542,Maningrida,64,AU,1552191307,71,-12.05,134.23,88.09,17.81
543,Doka,0,SD,1552191308,44,13.52,35.76,64.19,7.29
544,Coahuayana,0,MX,1552191309,59,18.62,-100.35,67.93,2.04
545,Conde,76,BR,1552191309,89,-11.81,-37.61,79.27,6.85
546,Rio Grande,68,BR,1552191309,95,-32.03,-52.1,69.73,14.12
547,Verkhnevilyuysk,20,RU,1552191309,61,63.45,120.31,15.82,6.73
548,Walvis Bay,0,NA,1552190580,87,-22.95,14.51,62.01,8.05
549,Half Moon Bay,90,US,1552191306,76,37.46,-122.43,50,9.17
